[
    {
        "id": "110000",
        "name": "北京",
        "fullname": "北京市",
        "location": {
            "lat": 39.905023,
            "lng": 116.724502
        },
        "cidx": [
            0,
            15
        ]
    },
    {
        "id": "120000",
        "name": "天津",
        "fullname": "天津市",
        "location": {
            "lat": 39.085318,
            "lng": 117.201509
        },
        "cidx": [
            16,
            31
        ]
    },
    {
        "id": "310000",
        "name": "上海",
        "fullname": "上海市",
        "location": {
            "lat": 31.230525,
            "lng": 121.473667
        },
        "cidx": [
            103,
            118
        ]
    },
    {
        "id": "500000",
        "name": "重庆",
        "fullname": "重庆市",
        "location": {
            "lat": 29.563707,
            "lng": 106.550483
        },
        "cidx": [
            298,
            335
        ]
    },
    {
        "id": "810000",
        "name": "香港",
        "fullname": "香港特别行政区",
        "location": {
            "lat": 22.277468,
            "lng": 114.171203
        },
        "cidx": [
            471,
            488
        ]
    },
    {
        "id": "820000",
        "name": "澳门",
        "fullname": "澳门特别行政区",
        "location": {
            "lat": 22.186927,
            "lng": 113.543076
        },
        "cidx": [
            489,
            492
        ]
    },
    {
        "id": "110105",
        "name": "朝阳",
        "fullname": "朝阳区",
        "location": {
            "lat": 39.921444,
            "lng": 116.443136
        },
        "cidx": null
    },
    {
        "id": "130100",
        "name": "石家庄",
        "fullname": "石家庄市",
        "location": {
            "lat": 38.042007,
            "lng": 114.514976
        },
        "cidx": [
            0,
            21
        ]
    },
    {
        "id": "130200",
        "name": "唐山",
        "fullname": "唐山市",
        "location": {
            "lat": 39.63068,
            "lng": 118.180149
        },
        "cidx": [
            22,
            36
        ]
    },
    {
        "id": "130300",
        "name": "秦皇岛",
        "fullname": "秦皇岛市",
        "location": {
            "lat": 39.888243,
            "lng": 119.52022
        },
        "cidx": [
            37,
            43
        ]
    },
    {
        "id": "130400",
        "name": "邯郸",
        "fullname": "邯郸市",
        "location": {
            "lat": 36.625849,
            "lng": 114.53915
        },
        "cidx": [
            44,
            61
        ]
    },
    {
        "id": "130500",
        "name": "邢台",
        "fullname": "邢台市",
        "location": {
            "lat": 37.058804,
            "lng": 114.497321
        },
        "cidx": [
            62,
            79
        ]
    },
    {
        "id": "130600",
        "name": "保定",
        "fullname": "保定市",
        "location": {
            "lat": 38.874476,
            "lng": 115.464523
        },
        "cidx": [
            80,
            100
        ]
    },
    {
        "id": "130700",
        "name": "张家口",
        "fullname": "张家口市",
        "location": {
            "lat": 40.768931,
            "lng": 114.885895
        },
        "cidx": [
            101,
            116
        ]
    },
    {
        "id": "130800",
        "name": "承德",
        "fullname": "承德市",
        "location": {
            "lat": 40.95324,
            "lng": 117.962859
        },
        "cidx": [
            117,
            127
        ]
    },
    {
        "id": "130900",
        "name": "沧州",
        "fullname": "沧州市",
        "location": {
            "lat": 38.304676,
            "lng": 116.838715
        },
        "cidx": [
            128,
            143
        ]
    },
    {
        "id": "131000",
        "name": "廊坊",
        "fullname": "廊坊市",
        "location": {
            "lat": 39.538304,
            "lng": 116.683546
        },
        "cidx": [
            144,
            153
        ]
    },
    {
        "id": "131100",
        "name": "衡水",
        "fullname": "衡水市",
        "location": {
            "lat": 37.739367,
            "lng": 115.668987
        },
        "cidx": [
            154,
            164
        ]
    },
    {
        "id": "133100",
        "name": "雄安",
        "fullname": "雄安新区",
        "location": {
            "lat": 39.049436,
            "lng": 115.913009
        },
        "cidx": [
            165,
            167
        ]
    },
    {
        "id": "140100",
        "name": "太原",
        "fullname": "太原市",
        "location": {
            "lat": 37.870451,
            "lng": 112.549656
        },
        "cidx": [
            168,
            177
        ]
    },
    {
        "id": "140200",
        "name": "大同",
        "fullname": "大同市",
        "location": {
            "lat": 40.09711,
            "lng": 113.366749
        },
        "cidx": [
            178,
            187
        ]
    },
    {
        "id": "140300",
        "name": "阳泉",
        "fullname": "阳泉市",
        "location": {
            "lat": 37.857094,
            "lng": 113.580426
        },
        "cidx": [
            188,
            192
        ]
    },
    {
        "id": "140400",
        "name": "长治",
        "fullname": "长治市",
        "location": {
            "lat": 36.195142,
            "lng": 113.117394
        },
        "cidx": [
            193,
            204
        ]
    },
    {
        "id": "140500",
        "name": "晋城",
        "fullname": "晋城市",
        "location": {
            "lat": 35.491315,
            "lng": 112.852022
        },
        "cidx": [
            205,
            210
        ]
    },
    {
        "id": "140600",
        "name": "朔州",
        "fullname": "朔州市",
        "location": {
            "lat": 39.331734,
            "lng": 112.432906
        },
        "cidx": [
            211,
            216
        ]
    },
    {
        "id": "140700",
        "name": "晋中",
        "fullname": "晋中市",
        "location": {
            "lat": 37.688006,
            "lng": 112.752633
        },
        "cidx": [
            217,
            227
        ]
    },
    {
        "id": "140800",
        "name": "运城",
        "fullname": "运城市",
        "location": {
            "lat": 35.02667,
            "lng": 111.007051
        },
        "cidx": [
            228,
            240
        ]
    },
    {
        "id": "140900",
        "name": "忻州",
        "fullname": "忻州市",
        "location": {
            "lat": 38.415958,
            "lng": 112.734149
        },
        "cidx": [
            241,
            254
        ]
    },
    {
        "id": "141000",
        "name": "临汾",
        "fullname": "临汾市",
        "location": {
            "lat": 36.088581,
            "lng": 111.51931
        },
        "cidx": [
            255,
            271
        ]
    },
    {
        "id": "141100",
        "name": "吕梁",
        "fullname": "吕梁市",
        "location": {
            "lat": 37.518996,
            "lng": 111.14454
        },
        "cidx": [
            272,
            284
        ]
    },
    {
        "id": "150100",
        "name": "呼和浩特",
        "fullname": "呼和浩特市",
        "location": {
            "lat": 40.842127,
            "lng": 111.748814
        },
        "cidx": [
            285,
            293
        ]
    },
    {
        "id": "150200",
        "name": "包头",
        "fullname": "包头市",
        "location": {
            "lat": 40.621327,
            "lng": 109.95315
        },
        "cidx": [
            294,
            302
        ]
    },
    {
        "id": "150300",
        "name": "乌海",
        "fullname": "乌海市",
        "location": {
            "lat": 39.655048,
            "lng": 106.79415
        },
        "cidx": [
            303,
            305
        ]
    },
    {
        "id": "150400",
        "name": "赤峰",
        "fullname": "赤峰市",
        "location": {
            "lat": 42.256876,
            "lng": 118.887613
        },
        "cidx": [
            306,
            317
        ]
    },
    {
        "id": "150500",
        "name": "通辽",
        "fullname": "通辽市",
        "location": {
            "lat": 43.653566,
            "lng": 122.243309
        },
        "cidx": [
            318,
            325
        ]
    },
    {
        "id": "150600",
        "name": "鄂尔多斯",
        "fullname": "鄂尔多斯市",
        "location": {
            "lat": 39.608744,
            "lng": 109.782473
        },
        "cidx": [
            326,
            334
        ]
    },
    {
        "id": "150700",
        "name": "呼伦贝尔",
        "fullname": "呼伦贝尔市",
        "location": {
            "lat": 49.166536,
            "lng": 119.77845
        },
        "cidx": [
            335,
            348
        ]
    },
    {
        "id": "150800",
        "name": "巴彦淖尔",
        "fullname": "巴彦淖尔市",
        "location": {
            "lat": 40.742987,
            "lng": 107.387767
        },
        "cidx": [
            349,
            355
        ]
    },
    {
        "id": "150900",
        "name": "乌兰察布",
        "fullname": "乌兰察布市",
        "location": {
            "lat": 40.994526,
            "lng": 113.132227
        },
        "cidx": [
            356,
            366
        ]
    },
    {
        "id": "152200",
        "name": "兴安",
        "fullname": "兴安盟",
        "location": {
            "lat": 46.082403,
            "lng": 122.037775
        },
        "cidx": [
            367,
            372
        ]
    },
    {
        "id": "152500",
        "name": "锡林郭勒",
        "fullname": "锡林郭勒盟",
        "location": {
            "lat": 43.933212,
            "lng": 116.047387
        },
        "cidx": [
            373,
            384
        ]
    },
    {
        "id": "152900",
        "name": "阿拉善",
        "fullname": "阿拉善盟",
        "location": {
            "lat": 38.851559,
            "lng": 105.729139
        },
        "cidx": [
            385,
            387
        ]
    },
    {
        "id": "210100",
        "name": "沈阳",
        "fullname": "沈阳市",
        "location": {
            "lat": 41.677576,
            "lng": 123.464675
        },
        "cidx": [
            388,
            400
        ]
    },
    {
        "id": "210200",
        "name": "大连",
        "fullname": "大连市",
        "location": {
            "lat": 38.913962,
            "lng": 121.614786
        },
        "cidx": [
            401,
            410
        ]
    },
    {
        "id": "210300",
        "name": "鞍山",
        "fullname": "鞍山市",
        "location": {
            "lat": 41.108239,
            "lng": 122.994183
        },
        "cidx": [
            411,
            417
        ]
    },
    {
        "id": "210400",
        "name": "抚顺",
        "fullname": "抚顺市",
        "location": {
            "lat": 41.881311,
            "lng": 123.957053
        },
        "cidx": [
            418,
            424
        ]
    },
    {
        "id": "210500",
        "name": "本溪",
        "fullname": "本溪市",
        "location": {
            "lat": 41.486834,
            "lng": 123.684984
        },
        "cidx": [
            425,
            430
        ]
    },
    {
        "id": "210600",
        "name": "丹东",
        "fullname": "丹东市",
        "location": {
            "lat": 40.000646,
            "lng": 124.354419
        },
        "cidx": [
            431,
            436
        ]
    },
    {
        "id": "210700",
        "name": "锦州",
        "fullname": "锦州市",
        "location": {
            "lat": 41.096114,
            "lng": 121.126859
        },
        "cidx": [
            437,
            443
        ]
    },
    {
        "id": "210800",
        "name": "营口",
        "fullname": "营口市",
        "location": {
            "lat": 40.625027,
            "lng": 122.219148
        },
        "cidx": [
            444,
            449
        ]
    },
    {
        "id": "210900",
        "name": "阜新",
        "fullname": "阜新市",
        "location": {
            "lat": 42.022028,
            "lng": 121.670052
        },
        "cidx": [
            450,
            456
        ]
    },
    {
        "id": "211000",
        "name": "辽阳",
        "fullname": "辽阳市",
        "location": {
            "lat": 41.267396,
            "lng": 123.239669
        },
        "cidx": [
            457,
            463
        ]
    },
    {
        "id": "211100",
        "name": "盘锦",
        "fullname": "盘锦市",
        "location": {
            "lat": 40.71956,
            "lng": 122.170729
        },
        "cidx": [
            464,
            467
        ]
    },
    {
        "id": "211200",
        "name": "铁岭",
        "fullname": "铁岭市",
        "location": {
            "lat": 42.223709,
            "lng": 123.726008
        },
        "cidx": [
            468,
            474
        ]
    },
    {
        "id": "211300",
        "name": "朝阳",
        "fullname": "朝阳市",
        "location": {
            "lat": 41.601855,
            "lng": 120.488801
        },
        "cidx": [
            475,
            481
        ]
    },
    {
        "id": "211400",
        "name": "葫芦岛",
        "fullname": "葫芦岛市",
        "location": {
            "lat": 40.710974,
            "lng": 120.836783
        },
        "cidx": [
            482,
            487
        ]
    },
    {
        "id": "220100",
        "name": "长春",
        "fullname": "长春市",
        "location": {
            "lat": 43.816996,
            "lng": 125.323643
        },
        "cidx": [
            488,
            498
        ]
    },
    {
        "id": "220200",
        "name": "吉林",
        "fullname": "吉林市",
        "location": {
            "lat": 43.838132,
            "lng": 126.549719
        },
        "cidx": [
            499,
            507
        ]
    },
    {
        "id": "220300",
        "name": "四平",
        "fullname": "四平市",
        "location": {
            "lat": 43.166764,
            "lng": 124.350599
        },
        "cidx": [
            508,
            512
        ]
    },
    {
        "id": "220400",
        "name": "辽源",
        "fullname": "辽源市",
        "location": {
            "lat": 42.887961,
            "lng": 125.144676
        },
        "cidx": [
            513,
            516
        ]
    },
    {
        "id": "220500",
        "name": "通化",
        "fullname": "通化市",
        "location": {
            "lat": 41.728312,
            "lng": 125.939721
        },
        "cidx": [
            517,
            523
        ]
    },
    {
        "id": "220600",
        "name": "白山",
        "fullname": "白山市",
        "location": {
            "lat": 41.944132,
            "lng": 126.414274
        },
        "cidx": [
            524,
            529
        ]
    },
    {
        "id": "220700",
        "name": "松原",
        "fullname": "松原市",
        "location": {
            "lat": 45.141908,
            "lng": 124.82531
        },
        "cidx": [
            530,
            534
        ]
    },
    {
        "id": "220800",
        "name": "白城",
        "fullname": "白城市",
        "location": {
            "lat": 45.620131,
            "lng": 122.838102
        },
        "cidx": [
            535,
            539
        ]
    },
    {
        "id": "222400",
        "name": "延边",
        "fullname": "延边朝鲜族自治州",
        "location": {
            "lat": 42.909426,
            "lng": 129.470605
        },
        "cidx": [
            540,
            547
        ]
    },
    {
        "id": "230100",
        "name": "哈尔滨",
        "fullname": "哈尔滨市",
        "location": {
            "lat": 45.802981,
            "lng": 126.53505
        },
        "cidx": [
            548,
            565
        ]
    },
    {
        "id": "230200",
        "name": "齐齐哈尔",
        "fullname": "齐齐哈尔市",
        "location": {
            "lat": 47.354892,
            "lng": 123.918193
        },
        "cidx": [
            566,
            581
        ]
    },
    {
        "id": "230300",
        "name": "鸡西",
        "fullname": "鸡西市",
        "location": {
            "lat": 45.295087,
            "lng": 130.969385
        },
        "cidx": [
            582,
            590
        ]
    },
    {
        "id": "230400",
        "name": "鹤岗",
        "fullname": "鹤岗市",
        "location": {
            "lat": 47.350659,
            "lng": 130.297687
        },
        "cidx": [
            591,
            598
        ]
    },
    {
        "id": "230500",
        "name": "双鸭山",
        "fullname": "双鸭山市",
        "location": {
            "lat": 46.676157,
            "lng": 131.141563
        },
        "cidx": [
            599,
            606
        ]
    },
    {
        "id": "230600",
        "name": "大庆",
        "fullname": "大庆市",
        "location": {
            "lat": 46.589498,
            "lng": 125.104078
        },
        "cidx": [
            607,
            615
        ]
    },
    {
        "id": "230700",
        "name": "伊春",
        "fullname": "伊春市",
        "location": {
            "lat": 47.728332,
            "lng": 128.840863
        },
        "cidx": [
            616,
            625
        ]
    },
    {
        "id": "230800",
        "name": "佳木斯",
        "fullname": "佳木斯市",
        "location": {
            "lat": 46.800002,
            "lng": 130.318916
        },
        "cidx": [
            626,
            635
        ]
    },
    {
        "id": "230900",
        "name": "七台河",
        "fullname": "七台河市",
        "location": {
            "lat": 45.771178,
            "lng": 131.003015
        },
        "cidx": [
            636,
            639
        ]
    },
    {
        "id": "231000",
        "name": "牡丹江",
        "fullname": "牡丹江市",
        "location": {
            "lat": 44.551486,
            "lng": 129.632928
        },
        "cidx": [
            640,
            649
        ]
    },
    {
        "id": "231100",
        "name": "黑河",
        "fullname": "黑河市",
        "location": {
            "lat": 50.244887,
            "lng": 127.528226
        },
        "cidx": [
            650,
            655
        ]
    },
    {
        "id": "231200",
        "name": "绥化",
        "fullname": "绥化市",
        "location": {
            "lat": 46.654147,
            "lng": 126.968714
        },
        "cidx": [
            656,
            665
        ]
    },
    {
        "id": "232700",
        "name": "大兴安岭",
        "fullname": "大兴安岭地区",
        "location": {
            "lat": 50.411275,
            "lng": 124.117854
        },
        "cidx": [
            666,
            669
        ]
    },
    {
        "id": "320100",
        "name": "南京",
        "fullname": "南京市",
        "location": {
            "lat": 32.059344,
            "lng": 118.796624
        },
        "cidx": [
            670,
            680
        ]
    },
    {
        "id": "320200",
        "name": "无锡",
        "fullname": "无锡市",
        "location": {
            "lat": 31.491064,
            "lng": 120.311889
        },
        "cidx": [
            681,
            687
        ]
    },
    {
        "id": "320300",
        "name": "徐州",
        "fullname": "徐州市",
        "location": {
            "lat": 34.204224,
            "lng": 117.283752
        },
        "cidx": [
            688,
            697
        ]
    },
    {
        "id": "320400",
        "name": "常州",
        "fullname": "常州市",
        "location": {
            "lat": 31.811313,
            "lng": 119.974092
        },
        "cidx": [
            698,
            703
        ]
    },
    {
        "id": "320500",
        "name": "苏州",
        "fullname": "苏州市",
        "location": {
            "lat": 31.299758,
            "lng": 120.585294
        },
        "cidx": [
            704,
            712
        ]
    },
    {
        "id": "320600",
        "name": "南通",
        "fullname": "南通市",
        "location": {
            "lat": 31.981269,
            "lng": 120.894522
        },
        "cidx": [
            713,
            719
        ]
    },
    {
        "id": "320700",
        "name": "连云港",
        "fullname": "连云港市",
        "location": {
            "lat": 34.596639,
            "lng": 119.221487
        },
        "cidx": [
            720,
            725
        ]
    },
    {
        "id": "320800",
        "name": "淮安",
        "fullname": "淮安市",
        "location": {
            "lat": 33.551495,
            "lng": 119.113166
        },
        "cidx": [
            726,
            732
        ]
    },
    {
        "id": "320900",
        "name": "盐城",
        "fullname": "盐城市",
        "location": {
            "lat": 33.348176,
            "lng": 120.16263
        },
        "cidx": [
            733,
            741
        ]
    },
    {
        "id": "321000",
        "name": "扬州",
        "fullname": "扬州市",
        "location": {
            "lat": 32.394404,
            "lng": 119.412834
        },
        "cidx": [
            742,
            747
        ]
    },
    {
        "id": "321100",
        "name": "镇江",
        "fullname": "镇江市",
        "location": {
            "lat": 32.188141,
            "lng": 119.424441
        },
        "cidx": [
            748,
            753
        ]
    },
    {
        "id": "321200",
        "name": "泰州",
        "fullname": "泰州市",
        "location": {
            "lat": 32.456692,
            "lng": 119.922883
        },
        "cidx": [
            754,
            759
        ]
    },
    {
        "id": "321300",
        "name": "宿迁",
        "fullname": "宿迁市",
        "location": {
            "lat": 33.963186,
            "lng": 118.275228
        },
        "cidx": [
            760,
            764
        ]
    },
    {
        "id": "330100",
        "name": "杭州",
        "fullname": "杭州市",
        "location": {
            "lat": 30.246026,
            "lng": 120.210792
        },
        "cidx": [
            765,
            777
        ]
    },
    {
        "id": "330100",
        "name": "杭州",
        "fullname": "杭州市",
        "location": {
            "lat": 30.246026,
            "lng": 120.210792
        },
        "cidx": [
            765,
            777
        ]
    },
    {
        "id": "330200",
        "name": "宁波",
        "fullname": "宁波市",
        "location": {
            "lat": 29.860258,
            "lng": 121.62454
        },
        "cidx": [
            778,
            787
        ]
    },
    {
        "id": "330300",
        "name": "温州",
        "fullname": "温州市",
        "location": {
            "lat": 27.993849,
            "lng": 120.699279
        },
        "cidx": [
            788,
            799
        ]
    },
    {
        "id": "330400",
        "name": "嘉兴",
        "fullname": "嘉兴市",
        "location": {
            "lat": 30.746814,
            "lng": 120.755623
        },
        "cidx": [
            800,
            806
        ]
    },
    {
        "id": "330500",
        "name": "湖州",
        "fullname": "湖州市",
        "location": {
            "lat": 30.894178,
            "lng": 120.086881
        },
        "cidx": [
            807,
            811
        ]
    },
    {
        "id": "330600",
        "name": "绍兴",
        "fullname": "绍兴市",
        "location": {
            "lat": 30.051549,
            "lng": 120.582886
        },
        "cidx": [
            812,
            817
        ]
    },
    {
        "id": "330700",
        "name": "金华",
        "fullname": "金华市",
        "location": {
            "lat": 29.079195,
            "lng": 119.647265
        },
        "cidx": [
            818,
            826
        ]
    },
    {
        "id": "330800",
        "name": "衢州",
        "fullname": "衢州市",
        "location": {
            "lat": 28.970229,
            "lng": 118.859307
        },
        "cidx": [
            827,
            832
        ]
    },
    {
        "id": "330900",
        "name": "舟山",
        "fullname": "舟山市",
        "location": {
            "lat": 29.985578,
            "lng": 122.207395
        },
        "cidx": [
            833,
            836
        ]
    },
    {
        "id": "331000",
        "name": "台州",
        "fullname": "台州市",
        "location": {
            "lat": 28.655716,
            "lng": 121.42079
        },
        "cidx": [
            837,
            845
        ]
    },
    {
        "id": "331100",
        "name": "丽水",
        "fullname": "丽水市",
        "location": {
            "lat": 28.467694,
            "lng": 119.923249
        },
        "cidx": [
            846,
            854
        ]
    },
    {
        "id": "340100",
        "name": "合肥",
        "fullname": "合肥市",
        "location": {
            "lat": 31.820567,
            "lng": 117.227267
        },
        "cidx": [
            855,
            863
        ]
    },
    {
        "id": "340200",
        "name": "芜湖",
        "fullname": "芜湖市",
        "location": {
            "lat": 31.352614,
            "lng": 118.433065
        },
        "cidx": [
            864,
            870
        ]
    },
    {
        "id": "340300",
        "name": "蚌埠",
        "fullname": "蚌埠市",
        "location": {
            "lat": 32.91682,
            "lng": 117.388566
        },
        "cidx": [
            871,
            877
        ]
    },
    {
        "id": "340400",
        "name": "淮南",
        "fullname": "淮南市",
        "location": {
            "lat": 32.585384,
            "lng": 117.018603
        },
        "cidx": [
            878,
            884
        ]
    },
    {
        "id": "340500",
        "name": "马鞍山",
        "fullname": "马鞍山市",
        "location": {
            "lat": 31.668765,
            "lng": 118.50685
        },
        "cidx": [
            885,
            890
        ]
    },
    {
        "id": "340600",
        "name": "淮北",
        "fullname": "淮北市",
        "location": {
            "lat": 33.956264,
            "lng": 116.798362
        },
        "cidx": [
            891,
            894
        ]
    },
    {
        "id": "340700",
        "name": "铜陵",
        "fullname": "铜陵市",
        "location": {
            "lat": 30.945214,
            "lng": 117.811298
        },
        "cidx": [
            895,
            898
        ]
    },
    {
        "id": "340800",
        "name": "安庆",
        "fullname": "安庆市",
        "location": {
            "lat": 30.531828,
            "lng": 117.115349
        },
        "cidx": [
            899,
            908
        ]
    },
    {
        "id": "341000",
        "name": "黄山",
        "fullname": "黄山市",
        "location": {
            "lat": 29.714886,
            "lng": 118.337643
        },
        "cidx": [
            909,
            915
        ]
    },
    {
        "id": "341100",
        "name": "滁州",
        "fullname": "滁州市",
        "location": {
            "lat": 32.255904,
            "lng": 118.333439
        },
        "cidx": [
            916,
            923
        ]
    },
    {
        "id": "341200",
        "name": "阜阳",
        "fullname": "阜阳市",
        "location": {
            "lat": 32.891032,
            "lng": 115.814252
        },
        "cidx": [
            924,
            931
        ]
    },
    {
        "id": "341300",
        "name": "宿州",
        "fullname": "宿州市",
        "location": {
            "lat": 33.647726,
            "lng": 116.96419
        },
        "cidx": [
            932,
            936
        ]
    },
    {
        "id": "341500",
        "name": "六安",
        "fullname": "六安市",
        "location": {
            "lat": 31.735892,
            "lng": 116.519729
        },
        "cidx": [
            937,
            943
        ]
    },
    {
        "id": "341600",
        "name": "亳州",
        "fullname": "亳州市",
        "location": {
            "lat": 33.846285,
            "lng": 115.778588
        },
        "cidx": [
            944,
            947
        ]
    },
    {
        "id": "341700",
        "name": "池州",
        "fullname": "池州市",
        "location": {
            "lat": 30.674264,
            "lng": 117.495663
        },
        "cidx": [
            948,
            951
        ]
    },
    {
        "id": "341800",
        "name": "宣城",
        "fullname": "宣城市",
        "location": {
            "lat": 30.939278,
            "lng": 118.759127
        },
        "cidx": [
            952,
            958
        ]
    },
    {
        "id": "350100",
        "name": "福州",
        "fullname": "福州市",
        "location": {
            "lat": 26.074286,
            "lng": 119.296411
        },
        "cidx": [
            959,
            971
        ]
    },
    {
        "id": "350200",
        "name": "厦门",
        "fullname": "厦门市",
        "location": {
            "lat": 24.479627,
            "lng": 118.08891
        },
        "cidx": [
            972,
            977
        ]
    },
    {
        "id": "350300",
        "name": "莆田",
        "fullname": "莆田市",
        "location": {
            "lat": 25.454202,
            "lng": 119.007662
        },
        "cidx": [
            978,
            982
        ]
    },
    {
        "id": "350400",
        "name": "三明",
        "fullname": "三明市",
        "location": {
            "lat": 26.263455,
            "lng": 117.638919
        },
        "cidx": [
            983,
            993
        ]
    },
    {
        "id": "350500",
        "name": "泉州",
        "fullname": "泉州市",
        "location": {
            "lat": 24.874452,
            "lng": 118.675724
        },
        "cidx": [
            994,
            1005
        ]
    },
    {
        "id": "350600",
        "name": "漳州",
        "fullname": "漳州市",
        "location": {
            "lat": 24.515297,
            "lng": 117.647298
        },
        "cidx": [
            1006,
            1016
        ]
    },
    {
        "id": "350700",
        "name": "南平",
        "fullname": "南平市",
        "location": {
            "lat": 27.38155,
            "lng": 118.08333
        },
        "cidx": [
            1017,
            1026
        ]
    },
    {
        "id": "350800",
        "name": "龙岩",
        "fullname": "龙岩市",
        "location": {
            "lat": 25.075884,
            "lng": 117.017362
        },
        "cidx": [
            1027,
            1033
        ]
    },
    {
        "id": "350900",
        "name": "宁德",
        "fullname": "宁德市",
        "location": {
            "lat": 26.666222,
            "lng": 119.547729
        },
        "cidx": [
            1034,
            1042
        ]
    },
    {
        "id": "360100",
        "name": "南昌",
        "fullname": "南昌市",
        "location": {
            "lat": 28.682976,
            "lng": 115.857972
        },
        "cidx": [
            1043,
            1051
        ]
    },
    {
        "id": "360200",
        "name": "景德镇",
        "fullname": "景德镇市",
        "location": {
            "lat": 29.2744,
            "lng": 117.184892
        },
        "cidx": [
            1052,
            1055
        ]
    },
    {
        "id": "360300",
        "name": "萍乡",
        "fullname": "萍乡市",
        "location": {
            "lat": 27.658721,
            "lng": 113.887147
        },
        "cidx": [
            1056,
            1060
        ]
    },
    {
        "id": "360400",
        "name": "九江",
        "fullname": "九江市",
        "location": {
            "lat": 29.66116,
            "lng": 115.95356
        },
        "cidx": [
            1061,
            1073
        ]
    },
    {
        "id": "360500",
        "name": "新余",
        "fullname": "新余市",
        "location": {
            "lat": 27.818878,
            "lng": 114.917145
        },
        "cidx": [
            1074,
            1075
        ]
    },
    {
        "id": "360600",
        "name": "鹰潭",
        "fullname": "鹰潭市",
        "location": {
            "lat": 28.272092,
            "lng": 117.039532
        },
        "cidx": [
            1076,
            1078
        ]
    },
    {
        "id": "360700",
        "name": "赣州",
        "fullname": "赣州市",
        "location": {
            "lat": 25.831139,
            "lng": 114.933494
        },
        "cidx": [
            1079,
            1096
        ]
    },
    {
        "id": "360800",
        "name": "吉安",
        "fullname": "吉安市",
        "location": {
            "lat": 27.091243,
            "lng": 114.96681
        },
        "cidx": [
            1097,
            1109
        ]
    },
    {
        "id": "360900",
        "name": "宜春",
        "fullname": "宜春市",
        "location": {
            "lat": 27.816245,
            "lng": 114.416826
        },
        "cidx": [
            1110,
            1119
        ]
    },
    {
        "id": "361000",
        "name": "抚州",
        "fullname": "抚州市",
        "location": {
            "lat": 27.948979,
            "lng": 116.358054
        },
        "cidx": [
            1120,
            1130
        ]
    },
    {
        "id": "361100",
        "name": "上饶",
        "fullname": "上饶市",
        "location": {
            "lat": 28.45513,
            "lng": 117.943064
        },
        "cidx": [
            1131,
            1142
        ]
    },
    {
        "id": "370100",
        "name": "济南",
        "fullname": "济南市",
        "location": {
            "lat": 36.652069,
            "lng": 117.120128
        },
        "cidx": [
            1143,
            1154
        ]
    },
    {
        "id": "370200",
        "name": "青岛",
        "fullname": "青岛市",
        "location": {
            "lat": 36.066938,
            "lng": 120.382665
        },
        "cidx": [
            1155,
            1164
        ]
    },
    {
        "id": "370200",
        "name": "青岛",
        "fullname": "青岛市",
        "location": {
            "lat": 36.066938,
            "lng": 120.382665
        },
        "cidx": [
            1155,
            1164
        ]
    },
    {
        "id": "370300",
        "name": "淄博",
        "fullname": "淄博市",
        "location": {
            "lat": 36.813787,
            "lng": 118.054994
        },
        "cidx": [
            1165,
            1172
        ]
    },
    {
        "id": "370400",
        "name": "枣庄",
        "fullname": "枣庄市",
        "location": {
            "lat": 34.810858,
            "lng": 117.323759
        },
        "cidx": [
            1173,
            1178
        ]
    },
    {
        "id": "370500",
        "name": "东营",
        "fullname": "东营市",
        "location": {
            "lat": 37.433839,
            "lng": 118.674534
        },
        "cidx": [
            1179,
            1183
        ]
    },
    {
        "id": "370600",
        "name": "烟台",
        "fullname": "烟台市",
        "location": {
            "lat": 37.464551,
            "lng": 121.447755
        },
        "cidx": [
            1184,
            1194
        ]
    },
    {
        "id": "370700",
        "name": "潍坊",
        "fullname": "潍坊市",
        "location": {
            "lat": 36.707668,
            "lng": 119.161721
        },
        "cidx": [
            1195,
            1206
        ]
    },
    {
        "id": "370800",
        "name": "济宁",
        "fullname": "济宁市",
        "location": {
            "lat": 35.415117,
            "lng": 116.587116
        },
        "cidx": [
            1207,
            1217
        ]
    },
    {
        "id": "370900",
        "name": "泰安",
        "fullname": "泰安市",
        "location": {
            "lat": 36.201784,
            "lng": 117.086963
        },
        "cidx": [
            1218,
            1223
        ]
    },
    {
        "id": "371000",
        "name": "威海",
        "fullname": "威海市",
        "location": {
            "lat": 37.513315,
            "lng": 122.120519
        },
        "cidx": [
            1224,
            1227
        ]
    },
    {
        "id": "371100",
        "name": "日照",
        "fullname": "日照市",
        "location": {
            "lat": 35.416912,
            "lng": 119.52685
        },
        "cidx": [
            1228,
            1231
        ]
    },
    {
        "id": "371300",
        "name": "临沂",
        "fullname": "临沂市",
        "location": {
            "lat": 35.103771,
            "lng": 118.356464
        },
        "cidx": [
            1232,
            1243
        ]
    },
    {
        "id": "371400",
        "name": "德州",
        "fullname": "德州市",
        "location": {
            "lat": 37.436492,
            "lng": 116.359244
        },
        "cidx": [
            1244,
            1254
        ]
    },
    {
        "id": "371500",
        "name": "聊城",
        "fullname": "聊城市",
        "location": {
            "lat": 36.455857,
            "lng": 115.985238
        },
        "cidx": [
            1255,
            1262
        ]
    },
    {
        "id": "371600",
        "name": "滨州",
        "fullname": "滨州市",
        "location": {
            "lat": 37.382687,
            "lng": 117.970731
        },
        "cidx": [
            1263,
            1269
        ]
    },
    {
        "id": "371700",
        "name": "菏泽",
        "fullname": "菏泽市",
        "location": {
            "lat": 35.234309,
            "lng": 115.479646
        },
        "cidx": [
            1270,
            1278
        ]
    },
    {
        "id": "410100",
        "name": "郑州",
        "fullname": "郑州市",
        "location": {
            "lat": 34.746303,
            "lng": 113.625351
        },
        "cidx": [
            1279,
            1290
        ]
    },
    {
        "id": "410200",
        "name": "开封",
        "fullname": "开封市",
        "location": {
            "lat": 34.798083,
            "lng": 114.314278
        },
        "cidx": [
            1291,
            1299
        ]
    },
    {
        "id": "410300",
        "name": "洛阳",
        "fullname": "洛阳市",
        "location": {
            "lat": 34.619702,
            "lng": 112.453895
        },
        "cidx": [
            1300,
            1313
        ]
    },
    {
        "id": "410400",
        "name": "平顶山",
        "fullname": "平顶山市",
        "location": {
            "lat": 33.766554,
            "lng": 113.192595
        },
        "cidx": [
            1314,
            1323
        ]
    },
    {
        "id": "410500",
        "name": "安阳",
        "fullname": "安阳市",
        "location": {
            "lat": 36.098779,
            "lng": 114.39248
        },
        "cidx": [
            1324,
            1332
        ]
    },
    {
        "id": "410600",
        "name": "鹤壁",
        "fullname": "鹤壁市",
        "location": {
            "lat": 35.748329,
            "lng": 114.297305
        },
        "cidx": [
            1333,
            1337
        ]
    },
    {
        "id": "410700",
        "name": "新乡",
        "fullname": "新乡市",
        "location": {
            "lat": 35.303589,
            "lng": 113.92679
        },
        "cidx": [
            1338,
            1349
        ]
    },
    {
        "id": "410800",
        "name": "焦作",
        "fullname": "焦作市",
        "location": {
            "lat": 35.215726,
            "lng": 113.241902
        },
        "cidx": [
            1350,
            1359
        ]
    },
    {
        "id": "410900",
        "name": "濮阳",
        "fullname": "濮阳市",
        "location": {
            "lat": 35.762731,
            "lng": 115.029246
        },
        "cidx": [
            1360,
            1365
        ]
    },
    {
        "id": "411000",
        "name": "许昌",
        "fullname": "许昌市",
        "location": {
            "lat": 34.03732,
            "lng": 113.852004
        },
        "cidx": [
            1366,
            1371
        ]
    },
    {
        "id": "411100",
        "name": "漯河",
        "fullname": "漯河市",
        "location": {
            "lat": 33.58038,
            "lng": 114.0166
        },
        "cidx": [
            1372,
            1376
        ]
    },
    {
        "id": "411200",
        "name": "三门峡",
        "fullname": "三门峡市",
        "location": {
            "lat": 34.773196,
            "lng": 111.200482
        },
        "cidx": [
            1377,
            1382
        ]
    },
    {
        "id": "411300",
        "name": "南阳",
        "fullname": "南阳市",
        "location": {
            "lat": 32.990218,
            "lng": 112.528549
        },
        "cidx": [
            1383,
            1395
        ]
    },
    {
        "id": "411400",
        "name": "商丘",
        "fullname": "商丘市",
        "location": {
            "lat": 34.415165,
            "lng": 115.656358
        },
        "cidx": [
            1396,
            1404
        ]
    },
    {
        "id": "411500",
        "name": "信阳",
        "fullname": "信阳市",
        "location": {
            "lat": 32.148624,
            "lng": 114.091058
        },
        "cidx": [
            1405,
            1414
        ]
    },
    {
        "id": "411600",
        "name": "周口",
        "fullname": "周口市",
        "location": {
            "lat": 33.634652,
            "lng": 114.701222
        },
        "cidx": [
            1415,
            1424
        ]
    },
    {
        "id": "411700",
        "name": "驻马店",
        "fullname": "驻马店市",
        "location": {
            "lat": 33.014038,
            "lng": 114.021988
        },
        "cidx": [
            1425,
            1434
        ]
    },
    {
        "id": "419001",
        "name": "济源",
        "fullname": "济源市",
        "location": {
            "lat": 35.069057,
            "lng": 112.602347
        },
        "cidx": null
    },
    {
        "id": "420100",
        "name": "武汉",
        "fullname": "武汉市",
        "location": {
            "lat": 30.593354,
            "lng": 114.304569
        },
        "cidx": [
            1435,
            1447
        ]
    },
    {
        "id": "420100",
        "name": "武汉",
        "fullname": "武汉市",
        "location": {
            "lat": 30.593354,
            "lng": 114.304569
        },
        "cidx": [
            1435,
            1447
        ]
    },
    {
        "id": "420200",
        "name": "黄石",
        "fullname": "黄石市",
        "location": {
            "lat": 30.201082,
            "lng": 115.038999
        },
        "cidx": [
            1448,
            1453
        ]
    },
    {
        "id": "420300",
        "name": "十堰",
        "fullname": "十堰市",
        "location": {
            "lat": 32.629057,
            "lng": 110.798921
        },
        "cidx": [
            1454,
            1461
        ]
    },
    {
        "id": "420500",
        "name": "宜昌",
        "fullname": "宜昌市",
        "location": {
            "lat": 30.69217,
            "lng": 111.286962
        },
        "cidx": [
            1462,
            1474
        ]
    },
    {
        "id": "420600",
        "name": "襄阳",
        "fullname": "襄阳市",
        "location": {
            "lat": 32.010161,
            "lng": 112.121743
        },
        "cidx": [
            1475,
            1483
        ]
    },
    {
        "id": "420700",
        "name": "鄂州",
        "fullname": "鄂州市",
        "location": {
            "lat": 30.39112,
            "lng": 114.894956
        },
        "cidx": [
            1484,
            1486
        ]
    },
    {
        "id": "420800",
        "name": "荆门",
        "fullname": "荆门市",
        "location": {
            "lat": 31.035445,
            "lng": 112.199009
        },
        "cidx": [
            1487,
            1491
        ]
    },
    {
        "id": "420900",
        "name": "孝感",
        "fullname": "孝感市",
        "location": {
            "lat": 30.918311,
            "lng": 113.956962
        },
        "cidx": [
            1492,
            1498
        ]
    },
    {
        "id": "421000",
        "name": "荆州",
        "fullname": "荆州市",
        "location": {
            "lat": 30.336282,
            "lng": 112.24143
        },
        "cidx": [
            1499,
            1506
        ]
    },
    {
        "id": "421100",
        "name": "黄冈",
        "fullname": "黄冈市",
        "location": {
            "lat": 30.453722,
            "lng": 114.872425
        },
        "cidx": [
            1507,
            1516
        ]
    },
    {
        "id": "421200",
        "name": "咸宁",
        "fullname": "咸宁市",
        "location": {
            "lat": 29.84135,
            "lng": 114.322601
        },
        "cidx": [
            1517,
            1522
        ]
    },
    {
        "id": "421300",
        "name": "随州",
        "fullname": "随州市",
        "location": {
            "lat": 31.690275,
            "lng": 113.382324
        },
        "cidx": [
            1523,
            1525
        ]
    },
    {
        "id": "422800",
        "name": "恩施",
        "fullname": "恩施土家族苗族自治州",
        "location": {
            "lat": 30.272104,
            "lng": 109.488076
        },
        "cidx": [
            1526,
            1533
        ]
    },
    {
        "id": "429004",
        "name": "仙桃",
        "fullname": "仙桃市",
        "location": {
            "lat": 30.328407,
            "lng": 113.442973
        },
        "cidx": null
    },
    {
        "id": "429005",
        "name": "潜江",
        "fullname": "潜江市",
        "location": {
            "lat": 30.401954,
            "lng": 112.900279
        },
        "cidx": null
    },
    {
        "id": "429006",
        "name": "天门",
        "fullname": "天门市",
        "location": {
            "lat": 30.663706,
            "lng": 113.166545
        },
        "cidx": null
    },
    {
        "id": "429021",
        "name": "神农架",
        "fullname": "神农架林区",
        "location": {
            "lat": 31.745103,
            "lng": 110.675879
        },
        "cidx": null
    },
    {
        "id": "430100",
        "name": "长沙",
        "fullname": "长沙市",
        "location": {
            "lat": 28.228304,
            "lng": 112.938882
        },
        "cidx": [
            1534,
            1542
        ]
    },
    {
        "id": "430200",
        "name": "株洲",
        "fullname": "株洲市",
        "location": {
            "lat": 27.828862,
            "lng": 113.132783
        },
        "cidx": [
            1543,
            1551
        ]
    },
    {
        "id": "430300",
        "name": "湘潭",
        "fullname": "湘潭市",
        "location": {
            "lat": 27.83136,
            "lng": 112.945439
        },
        "cidx": [
            1552,
            1556
        ]
    },
    {
        "id": "430400",
        "name": "衡阳",
        "fullname": "衡阳市",
        "location": {
            "lat": 26.894216,
            "lng": 112.572016
        },
        "cidx": [
            1557,
            1568
        ]
    },
    {
        "id": "430500",
        "name": "邵阳",
        "fullname": "邵阳市",
        "location": {
            "lat": 27.239528,
            "lng": 111.467855
        },
        "cidx": [
            1569,
            1580
        ]
    },
    {
        "id": "430600",
        "name": "岳阳",
        "fullname": "岳阳市",
        "location": {
            "lat": 29.35648,
            "lng": 113.128922
        },
        "cidx": [
            1581,
            1589
        ]
    },
    {
        "id": "430700",
        "name": "常德",
        "fullname": "常德市",
        "location": {
            "lat": 29.031446,
            "lng": 111.69905
        },
        "cidx": [
            1590,
            1598
        ]
    },
    {
        "id": "430800",
        "name": "张家界",
        "fullname": "张家界市",
        "location": {
            "lat": 29.117343,
            "lng": 110.478887
        },
        "cidx": [
            1599,
            1602
        ]
    },
    {
        "id": "430900",
        "name": "益阳",
        "fullname": "益阳市",
        "location": {
            "lat": 28.554853,
            "lng": 112.355994
        },
        "cidx": [
            1603,
            1608
        ]
    },
    {
        "id": "431000",
        "name": "郴州",
        "fullname": "郴州市",
        "location": {
            "lat": 25.770117,
            "lng": 113.015517
        },
        "cidx": [
            1609,
            1619
        ]
    },
    {
        "id": "431100",
        "name": "永州",
        "fullname": "永州市",
        "location": {
            "lat": 26.419861,
            "lng": 111.613482
        },
        "cidx": [
            1620,
            1630
        ]
    },
    {
        "id": "431200",
        "name": "怀化",
        "fullname": "怀化市",
        "location": {
            "lat": 27.569813,
            "lng": 110.001598
        },
        "cidx": [
            1631,
            1642
        ]
    },
    {
        "id": "431300",
        "name": "娄底",
        "fullname": "娄底市",
        "location": {
            "lat": 27.699838,
            "lng": 111.994468
        },
        "cidx": [
            1643,
            1647
        ]
    },
    {
        "id": "433100",
        "name": "湘西",
        "fullname": "湘西土家族苗族自治州",
        "location": {
            "lat": 28.312592,
            "lng": 109.737428
        },
        "cidx": [
            1648,
            1655
        ]
    },
    {
        "id": "440100",
        "name": "广州",
        "fullname": "广州市",
        "location": {
            "lat": 23.130061,
            "lng": 113.264499
        },
        "cidx": [
            1656,
            1666
        ]
    },
    {
        "id": "440100",
        "name": "广州",
        "fullname": "广州市",
        "location": {
            "lat": 23.130061,
            "lng": 113.264499
        },
        "cidx": [
            1656,
            1666
        ]
    },
    {
        "id": "440200",
        "name": "韶关",
        "fullname": "韶关市",
        "location": {
            "lat": 24.810977,
            "lng": 113.597324
        },
        "cidx": [
            1667,
            1676
        ]
    },
    {
        "id": "440300",
        "name": "深圳",
        "fullname": "深圳市",
        "location": {
            "lat": 22.543527,
            "lng": 114.057939
        },
        "cidx": [
            1677,
            1685
        ]
    },
    {
        "id": "440300",
        "name": "深圳",
        "fullname": "深圳市",
        "location": {
            "lat": 22.543527,
            "lng": 114.057939
        },
        "cidx": [
            1677,
            1685
        ]
    },
    {
        "id": "440400",
        "name": "珠海",
        "fullname": "珠海市",
        "location": {
            "lat": 22.271644,
            "lng": 113.576892
        },
        "cidx": [
            1686,
            1688
        ]
    },
    {
        "id": "440500",
        "name": "汕头",
        "fullname": "汕头市",
        "location": {
            "lat": 23.354152,
            "lng": 116.681956
        },
        "cidx": [
            1689,
            1695
        ]
    },
    {
        "id": "440600",
        "name": "佛山",
        "fullname": "佛山市",
        "location": {
            "lat": 23.021351,
            "lng": 113.121586
        },
        "cidx": [
            1696,
            1700
        ]
    },
    {
        "id": "440700",
        "name": "江门",
        "fullname": "江门市",
        "location": {
            "lat": 22.578948,
            "lng": 113.081548
        },
        "cidx": [
            1701,
            1707
        ]
    },
    {
        "id": "440800",
        "name": "湛江",
        "fullname": "湛江市",
        "location": {
            "lat": 21.270108,
            "lng": 110.357538
        },
        "cidx": [
            1708,
            1716
        ]
    },
    {
        "id": "440900",
        "name": "茂名",
        "fullname": "茂名市",
        "location": {
            "lat": 21.662728,
            "lng": 110.925533
        },
        "cidx": [
            1717,
            1721
        ]
    },
    {
        "id": "441200",
        "name": "肇庆",
        "fullname": "肇庆市",
        "location": {
            "lat": 23.047747,
            "lng": 112.465245
        },
        "cidx": [
            1722,
            1729
        ]
    },
    {
        "id": "441300",
        "name": "惠州",
        "fullname": "惠州市",
        "location": {
            "lat": 23.112368,
            "lng": 114.415587
        },
        "cidx": [
            1730,
            1734
        ]
    },
    {
        "id": "441400",
        "name": "梅州",
        "fullname": "梅州市",
        "location": {
            "lat": 24.288832,
            "lng": 116.122046
        },
        "cidx": [
            1735,
            1742
        ]
    },
    {
        "id": "441500",
        "name": "汕尾",
        "fullname": "汕尾市",
        "location": {
            "lat": 22.787204,
            "lng": 115.375557
        },
        "cidx": [
            1743,
            1746
        ]
    },
    {
        "id": "441600",
        "name": "河源",
        "fullname": "河源市",
        "location": {
            "lat": 23.744276,
            "lng": 114.700215
        },
        "cidx": [
            1747,
            1752
        ]
    },
    {
        "id": "441700",
        "name": "阳江",
        "fullname": "阳江市",
        "location": {
            "lat": 21.856853,
            "lng": 111.98343
        },
        "cidx": [
            1753,
            1756
        ]
    },
    {
        "id": "441800",
        "name": "清远",
        "fullname": "清远市",
        "location": {
            "lat": 23.682064,
            "lng": 113.056098
        },
        "cidx": [
            1757,
            1764
        ]
    },
    {
        "id": "441900",
        "name": "东莞",
        "fullname": "东莞市",
        "location": {
            "lat": 23.021016,
            "lng": 113.751884
        },
        "cidx": [
            1765,
            1765
        ]
    },
    {
        "id": "442000",
        "name": "中山",
        "fullname": "中山市",
        "location": {
            "lat": 22.517024,
            "lng": 113.392517
        },
        "cidx": [
            1766,
            1766
        ]
    },
    {
        "id": "445100",
        "name": "潮州",
        "fullname": "潮州市",
        "location": {
            "lat": 23.657662,
            "lng": 116.621901
        },
        "cidx": [
            1767,
            1769
        ]
    },
    {
        "id": "445200",
        "name": "揭阳",
        "fullname": "揭阳市",
        "location": {
            "lat": 23.550968,
            "lng": 116.372732
        },
        "cidx": [
            1770,
            1774
        ]
    },
    {
        "id": "445300",
        "name": "云浮",
        "fullname": "云浮市",
        "location": {
            "lat": 22.914639,
            "lng": 112.044788
        },
        "cidx": [
            1775,
            1779
        ]
    },
    {
        "id": "450100",
        "name": "南宁",
        "fullname": "南宁市",
        "location": {
            "lat": 22.8177,
            "lng": 108.366407
        },
        "cidx": [
            1780,
            1791
        ]
    },
    {
        "id": "450200",
        "name": "柳州",
        "fullname": "柳州市",
        "location": {
            "lat": 24.326442,
            "lng": 109.428071
        },
        "cidx": [
            1792,
            1801
        ]
    },
    {
        "id": "450300",
        "name": "桂林",
        "fullname": "桂林市",
        "location": {
            "lat": 25.235615,
            "lng": 110.179752
        },
        "cidx": [
            1802,
            1818
        ]
    },
    {
        "id": "450400",
        "name": "梧州",
        "fullname": "梧州市",
        "location": {
            "lat": 23.476733,
            "lng": 111.279022
        },
        "cidx": [
            1819,
            1825
        ]
    },
    {
        "id": "450500",
        "name": "北海",
        "fullname": "北海市",
        "location": {
            "lat": 21.481305,
            "lng": 109.120248
        },
        "cidx": [
            1826,
            1829
        ]
    },
    {
        "id": "450600",
        "name": "防城港",
        "fullname": "防城港市",
        "location": {
            "lat": 21.686732,
            "lng": 108.35467
        },
        "cidx": [
            1830,
            1833
        ]
    },
    {
        "id": "450700",
        "name": "钦州",
        "fullname": "钦州市",
        "location": {
            "lat": 21.980894,
            "lng": 108.654355
        },
        "cidx": [
            1834,
            1837
        ]
    },
    {
        "id": "450800",
        "name": "贵港",
        "fullname": "贵港市",
        "location": {
            "lat": 23.11182,
            "lng": 109.598903
        },
        "cidx": [
            1838,
            1842
        ]
    },
    {
        "id": "450900",
        "name": "玉林",
        "fullname": "玉林市",
        "location": {
            "lat": 22.654001,
            "lng": 110.18097
        },
        "cidx": [
            1843,
            1849
        ]
    },
    {
        "id": "451000",
        "name": "百色",
        "fullname": "百色市",
        "location": {
            "lat": 23.90307,
            "lng": 106.61869
        },
        "cidx": [
            1850,
            1861
        ]
    },
    {
        "id": "451100",
        "name": "贺州",
        "fullname": "贺州市",
        "location": {
            "lat": 24.404182,
            "lng": 111.567216
        },
        "cidx": [
            1862,
            1866
        ]
    },
    {
        "id": "451200",
        "name": "河池",
        "fullname": "河池市",
        "location": {
            "lat": 24.48503,
            "lng": 108.63654
        },
        "cidx": [
            1867,
            1877
        ]
    },
    {
        "id": "451300",
        "name": "来宾",
        "fullname": "来宾市",
        "location": {
            "lat": 23.750105,
            "lng": 109.221243
        },
        "cidx": [
            1878,
            1883
        ]
    },
    {
        "id": "451400",
        "name": "崇左",
        "fullname": "崇左市",
        "location": {
            "lat": 22.377139,
            "lng": 107.364973
        },
        "cidx": [
            1884,
            1890
        ]
    },
    {
        "id": "460100",
        "name": "海口",
        "fullname": "海口市",
        "location": {
            "lat": 20.046316,
            "lng": 110.200162
        },
        "cidx": [
            1891,
            1894
        ]
    },
    {
        "id": "460200",
        "name": "三亚",
        "fullname": "三亚市",
        "location": {
            "lat": 18.252865,
            "lng": 109.511709
        },
        "cidx": [
            1895,
            1898
        ]
    },
    {
        "id": "460300",
        "name": "三沙",
        "fullname": "三沙市",
        "location": {
            "lat": 16.831004,
            "lng": 112.338649
        },
        "cidx": [
            1899,
            1901
        ]
    },
    {
        "id": "460400",
        "name": "儋州",
        "fullname": "儋州市",
        "location": {
            "lat": 19.520948,
            "lng": 109.580812
        },
        "cidx": [
            1902,
            1902
        ]
    },
    {
        "id": "469001",
        "name": "五指山",
        "fullname": "五指山市",
        "location": {
            "lat": 18.774827,
            "lng": 109.516784
        },
        "cidx": null
    },
    {
        "id": "469002",
        "name": "琼海",
        "fullname": "琼海市",
        "location": {
            "lat": 19.259112,
            "lng": 110.474524
        },
        "cidx": null
    },
    {
        "id": "469005",
        "name": "文昌",
        "fullname": "文昌市",
        "location": {
            "lat": 19.544234,
            "lng": 110.797473
        },
        "cidx": null
    },
    {
        "id": "469006",
        "name": "万宁",
        "fullname": "万宁市",
        "location": {
            "lat": 18.793697,
            "lng": 110.392605
        },
        "cidx": null
    },
    {
        "id": "469007",
        "name": "东方",
        "fullname": "东方市",
        "location": {
            "lat": 19.095187,
            "lng": 108.651829
        },
        "cidx": null
    },
    {
        "id": "469021",
        "name": "定安",
        "fullname": "定安县",
        "location": {
            "lat": 19.681215,
            "lng": 110.358001
        },
        "cidx": null
    },
    {
        "id": "469022",
        "name": "屯昌",
        "fullname": "屯昌县",
        "location": {
            "lat": 19.351662,
            "lng": 110.101667
        },
        "cidx": null
    },
    {
        "id": "469023",
        "name": "澄迈",
        "fullname": "澄迈县",
        "location": {
            "lat": 19.738885,
            "lng": 110.007497
        },
        "cidx": null
    },
    {
        "id": "469024",
        "name": "临高",
        "fullname": "临高县",
        "location": {
            "lat": 19.913326,
            "lng": 109.690884
        },
        "cidx": null
    },
    {
        "id": "469025",
        "name": "白沙",
        "fullname": "白沙黎族自治县",
        "location": {
            "lat": 19.221641,
            "lng": 109.4429
        },
        "cidx": null
    },
    {
        "id": "469026",
        "name": "昌江",
        "fullname": "昌江黎族自治县",
        "location": {
            "lat": 19.298139,
            "lng": 109.055783
        },
        "cidx": null
    },
    {
        "id": "469027",
        "name": "乐东",
        "fullname": "乐东黎族自治县",
        "location": {
            "lat": 18.750063,
            "lng": 109.173384
        },
        "cidx": null
    },
    {
        "id": "469028",
        "name": "陵水",
        "fullname": "陵水黎族自治县",
        "location": {
            "lat": 18.506731,
            "lng": 110.037496
        },
        "cidx": null
    },
    {
        "id": "469029",
        "name": "保亭",
        "fullname": "保亭黎族苗族自治县",
        "location": {
            "lat": 18.640339,
            "lng": 109.700279
        },
        "cidx": null
    },
    {
        "id": "469030",
        "name": "琼中",
        "fullname": "琼中黎族苗族自治县",
        "location": {
            "lat": 19.03327,
            "lng": 109.838423
        },
        "cidx": null
    },
    {
        "id": "510100",
        "name": "成都",
        "fullname": "成都市",
        "location": {
            "lat": 30.572961,
            "lng": 104.066301
        },
        "cidx": [
            1903,
            1922
        ]
    },
    {
        "id": "510100",
        "name": "成都",
        "fullname": "成都市",
        "location": {
            "lat": 30.572961,
            "lng": 104.066301
        },
        "cidx": [
            1903,
            1922
        ]
    },
    {
        "id": "510300",
        "name": "自贡",
        "fullname": "自贡市",
        "location": {
            "lat": 29.33924,
            "lng": 104.779307
        },
        "cidx": [
            1923,
            1928
        ]
    },
    {
        "id": "510400",
        "name": "攀枝花",
        "fullname": "攀枝花市",
        "location": {
            "lat": 26.582417,
            "lng": 101.71846
        },
        "cidx": [
            1929,
            1933
        ]
    },
    {
        "id": "510500",
        "name": "泸州",
        "fullname": "泸州市",
        "location": {
            "lat": 28.87098,
            "lng": 105.441866
        },
        "cidx": [
            1934,
            1940
        ]
    },
    {
        "id": "510600",
        "name": "德阳",
        "fullname": "德阳市",
        "location": {
            "lat": 31.127449,
            "lng": 104.397795
        },
        "cidx": [
            1941,
            1946
        ]
    },
    {
        "id": "510700",
        "name": "绵阳",
        "fullname": "绵阳市",
        "location": {
            "lat": 31.467673,
            "lng": 104.679127
        },
        "cidx": [
            1947,
            1955
        ]
    },
    {
        "id": "510800",
        "name": "广元",
        "fullname": "广元市",
        "location": {
            "lat": 32.435774,
            "lng": 105.844004
        },
        "cidx": [
            1956,
            1962
        ]
    },
    {
        "id": "510900",
        "name": "遂宁",
        "fullname": "遂宁市",
        "location": {
            "lat": 30.53268,
            "lng": 105.592602
        },
        "cidx": [
            1963,
            1967
        ]
    },
    {
        "id": "511000",
        "name": "内江",
        "fullname": "内江市",
        "location": {
            "lat": 29.58021,
            "lng": 105.057992
        },
        "cidx": [
            1968,
            1972
        ]
    },
    {
        "id": "511100",
        "name": "乐山",
        "fullname": "乐山市",
        "location": {
            "lat": 29.552275,
            "lng": 103.766085
        },
        "cidx": [
            1973,
            1983
        ]
    },
    {
        "id": "511300",
        "name": "南充",
        "fullname": "南充市",
        "location": {
            "lat": 30.837235,
            "lng": 106.110565
        },
        "cidx": [
            1984,
            1992
        ]
    },
    {
        "id": "511400",
        "name": "眉山",
        "fullname": "眉山市",
        "location": {
            "lat": 30.077113,
            "lng": 103.848417
        },
        "cidx": [
            1993,
            1998
        ]
    },
    {
        "id": "511500",
        "name": "宜宾",
        "fullname": "宜宾市",
        "location": {
            "lat": 28.752354,
            "lng": 104.642826
        },
        "cidx": [
            1999,
            2008
        ]
    },
    {
        "id": "511600",
        "name": "广安",
        "fullname": "广安市",
        "location": {
            "lat": 30.456354,
            "lng": 106.632647
        },
        "cidx": [
            2009,
            2014
        ]
    },
    {
        "id": "511700",
        "name": "达州",
        "fullname": "达州市",
        "location": {
            "lat": 31.209278,
            "lng": 107.46778
        },
        "cidx": [
            2015,
            2021
        ]
    },
    {
        "id": "511800",
        "name": "雅安",
        "fullname": "雅安市",
        "location": {
            "lat": 30.009998,
            "lng": 103.041538
        },
        "cidx": [
            2022,
            2029
        ]
    },
    {
        "id": "511900",
        "name": "巴中",
        "fullname": "巴中市",
        "location": {
            "lat": 31.867853,
            "lng": 106.747548
        },
        "cidx": [
            2030,
            2034
        ]
    },
    {
        "id": "512000",
        "name": "资阳",
        "fullname": "资阳市",
        "location": {
            "lat": 30.129236,
            "lng": 104.627265
        },
        "cidx": [
            2035,
            2037
        ]
    },
    {
        "id": "513200",
        "name": "阿坝",
        "fullname": "阿坝藏族羌族自治州",
        "location": {
            "lat": 31.899427,
            "lng": 102.224504
        },
        "cidx": [
            2038,
            2050
        ]
    },
    {
        "id": "513300",
        "name": "甘孜",
        "fullname": "甘孜藏族自治州",
        "location": {
            "lat": 30.04952,
            "lng": 101.96231
        },
        "cidx": [
            2051,
            2068
        ]
    },
    {
        "id": "513400",
        "name": "凉山",
        "fullname": "凉山彝族自治州",
        "location": {
            "lat": 27.881396,
            "lng": 102.267713
        },
        "cidx": [
            2069,
            2085
        ]
    },
    {
        "id": "520100",
        "name": "贵阳",
        "fullname": "贵阳市",
        "location": {
            "lat": 26.646694,
            "lng": 106.628201
        },
        "cidx": [
            2086,
            2095
        ]
    },
    {
        "id": "520200",
        "name": "六盘水",
        "fullname": "六盘水市",
        "location": {
            "lat": 26.592538,
            "lng": 104.830357
        },
        "cidx": [
            2096,
            2099
        ]
    },
    {
        "id": "520300",
        "name": "遵义",
        "fullname": "遵义市",
        "location": {
            "lat": 27.721931,
            "lng": 107.031922
        },
        "cidx": [
            2100,
            2113
        ]
    },
    {
        "id": "520400",
        "name": "安顺",
        "fullname": "安顺市",
        "location": {
            "lat": 26.253103,
            "lng": 105.9476
        },
        "cidx": [
            2114,
            2119
        ]
    },
    {
        "id": "520500",
        "name": "毕节",
        "fullname": "毕节市",
        "location": {
            "lat": 27.283615,
            "lng": 105.291544
        },
        "cidx": [
            2120,
            2127
        ]
    },
    {
        "id": "520600",
        "name": "铜仁",
        "fullname": "铜仁市",
        "location": {
            "lat": 27.731555,
            "lng": 109.189528
        },
        "cidx": [
            2128,
            2137
        ]
    },
    {
        "id": "522300",
        "name": "黔西南",
        "fullname": "黔西南布依族苗族自治州",
        "location": {
            "lat": 25.087733,
            "lng": 104.906419
        },
        "cidx": [
            2138,
            2145
        ]
    },
    {
        "id": "522600",
        "name": "黔东南",
        "fullname": "黔东南苗族侗族自治州",
        "location": {
            "lat": 26.583759,
            "lng": 107.982838
        },
        "cidx": [
            2146,
            2161
        ]
    },
    {
        "id": "522700",
        "name": "黔南",
        "fullname": "黔南布依族苗族自治州",
        "location": {
            "lat": 26.253136,
            "lng": 107.522303
        },
        "cidx": [
            2162,
            2173
        ]
    },
    {
        "id": "530100",
        "name": "昆明",
        "fullname": "昆明市",
        "location": {
            "lat": 24.88149,
            "lng": 102.833669
        },
        "cidx": [
            2174,
            2187
        ]
    },
    {
        "id": "530300",
        "name": "曲靖",
        "fullname": "曲靖市",
        "location": {
            "lat": 25.490866,
            "lng": 103.796288
        },
        "cidx": [
            2188,
            2196
        ]
    },
    {
        "id": "530400",
        "name": "玉溪",
        "fullname": "玉溪市",
        "location": {
            "lat": 24.346786,
            "lng": 102.526673
        },
        "cidx": [
            2197,
            2205
        ]
    },
    {
        "id": "530500",
        "name": "保山",
        "fullname": "保山市",
        "location": {
            "lat": 25.112018,
            "lng": 99.161489
        },
        "cidx": [
            2206,
            2210
        ]
    },
    {
        "id": "530600",
        "name": "昭通",
        "fullname": "昭通市",
        "location": {
            "lat": 27.338185,
            "lng": 103.717078
        },
        "cidx": [
            2211,
            2221
        ]
    },
    {
        "id": "530700",
        "name": "丽江",
        "fullname": "丽江市",
        "location": {
            "lat": 26.855165,
            "lng": 100.225936
        },
        "cidx": [
            2222,
            2226
        ]
    },
    {
        "id": "530800",
        "name": "普洱",
        "fullname": "普洱市",
        "location": {
            "lat": 22.825229,
            "lng": 100.966011
        },
        "cidx": [
            2227,
            2236
        ]
    },
    {
        "id": "530900",
        "name": "临沧",
        "fullname": "临沧市",
        "location": {
            "lat": 23.884175,
            "lng": 100.088837
        },
        "cidx": [
            2237,
            2244
        ]
    },
    {
        "id": "532300",
        "name": "楚雄",
        "fullname": "楚雄彝族自治州",
        "location": {
            "lat": 25.045678,
            "lng": 101.528304
        },
        "cidx": [
            2245,
            2254
        ]
    },
    {
        "id": "532500",
        "name": "红河",
        "fullname": "红河哈尼族彝族自治州",
        "location": {
            "lat": 23.363129,
            "lng": 103.374873
        },
        "cidx": [
            2255,
            2267
        ]
    },
    {
        "id": "532600",
        "name": "文山",
        "fullname": "文山壮族苗族自治州",
        "location": {
            "lat": 23.400983,
            "lng": 104.21567
        },
        "cidx": [
            2268,
            2275
        ]
    },
    {
        "id": "532800",
        "name": "西双版纳",
        "fullname": "西双版纳傣族自治州",
        "location": {
            "lat": 22.009037,
            "lng": 100.797002
        },
        "cidx": [
            2276,
            2278
        ]
    },
    {
        "id": "532900",
        "name": "大理",
        "fullname": "大理白族自治州",
        "location": {
            "lat": 25.606548,
            "lng": 100.267608
        },
        "cidx": [
            2279,
            2290
        ]
    },
    {
        "id": "533100",
        "name": "德宏",
        "fullname": "德宏傣族景颇族自治州",
        "location": {
            "lat": 24.433146,
            "lng": 98.585621
        },
        "cidx": [
            2291,
            2295
        ]
    },
    {
        "id": "533300",
        "name": "怒江",
        "fullname": "怒江傈僳族自治州",
        "location": {
            "lat": 25.817555,
            "lng": 98.8566
        },
        "cidx": [
            2296,
            2299
        ]
    },
    {
        "id": "533400",
        "name": "迪庆",
        "fullname": "迪庆藏族自治州",
        "location": {
            "lat": 27.819149,
            "lng": 99.70211
        },
        "cidx": [
            2300,
            2302
        ]
    },
    {
        "id": "540100",
        "name": "拉萨",
        "fullname": "拉萨市",
        "location": {
            "lat": 29.653491,
            "lng": 91.171924
        },
        "cidx": [
            2303,
            2310
        ]
    },
    {
        "id": "540200",
        "name": "日喀则",
        "fullname": "日喀则市",
        "location": {
            "lat": 29.266838,
            "lng": 88.880423
        },
        "cidx": [
            2311,
            2328
        ]
    },
    {
        "id": "540300",
        "name": "昌都",
        "fullname": "昌都市",
        "location": {
            "lat": 31.142879,
            "lng": 97.170425
        },
        "cidx": [
            2329,
            2339
        ]
    },
    {
        "id": "540400",
        "name": "林芝",
        "fullname": "林芝市",
        "location": {
            "lat": 29.64875,
            "lng": 94.361436
        },
        "cidx": [
            2340,
            2346
        ]
    },
    {
        "id": "540500",
        "name": "山南",
        "fullname": "山南市",
        "location": {
            "lat": 29.237722,
            "lng": 91.771426
        },
        "cidx": [
            2347,
            2358
        ]
    },
    {
        "id": "540600",
        "name": "那曲",
        "fullname": "那曲市",
        "location": {
            "lat": 31.477905,
            "lng": 92.05151
        },
        "cidx": [
            2359,
            2369
        ]
    },
    {
        "id": "542500",
        "name": "阿里",
        "fullname": "阿里地区",
        "location": {
            "lat": 32.500987,
            "lng": 80.105786
        },
        "cidx": [
            2370,
            2376
        ]
    },
    {
        "id": "610100",
        "name": "西安",
        "fullname": "西安市",
        "location": {
            "lat": 34.343207,
            "lng": 108.939645
        },
        "cidx": [
            2377,
            2389
        ]
    },
    {
        "id": "610200",
        "name": "铜川",
        "fullname": "铜川市",
        "location": {
            "lat": 34.897133,
            "lng": 108.945116
        },
        "cidx": [
            2390,
            2393
        ]
    },
    {
        "id": "610300",
        "name": "宝鸡",
        "fullname": "宝鸡市",
        "location": {
            "lat": 34.362862,
            "lng": 107.237682
        },
        "cidx": [
            2394,
            2405
        ]
    },
    {
        "id": "610400",
        "name": "咸阳",
        "fullname": "咸阳市",
        "location": {
            "lat": 34.329896,
            "lng": 108.708837
        },
        "cidx": [
            2406,
            2419
        ]
    },
    {
        "id": "610500",
        "name": "渭南",
        "fullname": "渭南市",
        "location": {
            "lat": 34.520632,
            "lng": 109.470962
        },
        "cidx": [
            2420,
            2430
        ]
    },
    {
        "id": "610600",
        "name": "延安",
        "fullname": "延安市",
        "location": {
            "lat": 36.650109,
            "lng": 109.49468
        },
        "cidx": [
            2431,
            2443
        ]
    },
    {
        "id": "610700",
        "name": "汉中",
        "fullname": "汉中市",
        "location": {
            "lat": 33.066373,
            "lng": 107.02319
        },
        "cidx": [
            2444,
            2454
        ]
    },
    {
        "id": "610800",
        "name": "榆林",
        "fullname": "榆林市",
        "location": {
            "lat": 38.28576,
            "lng": 109.734104
        },
        "cidx": [
            2455,
            2466
        ]
    },
    {
        "id": "610900",
        "name": "安康",
        "fullname": "安康市",
        "location": {
            "lat": 32.685435,
            "lng": 109.029017
        },
        "cidx": [
            2467,
            2476
        ]
    },
    {
        "id": "611000",
        "name": "商洛",
        "fullname": "商洛市",
        "location": {
            "lat": 33.873358,
            "lng": 109.918646
        },
        "cidx": [
            2477,
            2483
        ]
    },
    {
        "id": "620100",
        "name": "兰州",
        "fullname": "兰州市",
        "location": {
            "lat": 36.060798,
            "lng": 103.834228
        },
        "cidx": [
            2484,
            2491
        ]
    },
    {
        "id": "620200",
        "name": "嘉峪关",
        "fullname": "嘉峪关市",
        "location": {
            "lat": 39.77325,
            "lng": 98.2882
        },
        "cidx": [
            2492,
            2492
        ]
    },
    {
        "id": "620300",
        "name": "金昌",
        "fullname": "金昌市",
        "location": {
            "lat": 38.521468,
            "lng": 102.187972
        },
        "cidx": [
            2493,
            2494
        ]
    },
    {
        "id": "620400",
        "name": "白银",
        "fullname": "白银市",
        "location": {
            "lat": 36.545123,
            "lng": 104.138872
        },
        "cidx": [
            2495,
            2499
        ]
    },
    {
        "id": "620500",
        "name": "天水",
        "fullname": "天水市",
        "location": {
            "lat": 34.581514,
            "lng": 105.724828
        },
        "cidx": [
            2500,
            2506
        ]
    },
    {
        "id": "620600",
        "name": "武威",
        "fullname": "武威市",
        "location": {
            "lat": 37.92898,
            "lng": 102.637821
        },
        "cidx": [
            2507,
            2510
        ]
    },
    {
        "id": "620700",
        "name": "张掖",
        "fullname": "张掖市",
        "location": {
            "lat": 38.924766,
            "lng": 100.449858
        },
        "cidx": [
            2511,
            2516
        ]
    },
    {
        "id": "620800",
        "name": "平凉",
        "fullname": "平凉市",
        "location": {
            "lat": 35.542417,
            "lng": 106.664913
        },
        "cidx": [
            2517,
            2523
        ]
    },
    {
        "id": "620900",
        "name": "酒泉",
        "fullname": "酒泉市",
        "location": {
            "lat": 39.733416,
            "lng": 98.49432
        },
        "cidx": [
            2524,
            2530
        ]
    },
    {
        "id": "621000",
        "name": "庆阳",
        "fullname": "庆阳市",
        "location": {
            "lat": 35.709459,
            "lng": 107.643433
        },
        "cidx": [
            2531,
            2538
        ]
    },
    {
        "id": "621100",
        "name": "定西",
        "fullname": "定西市",
        "location": {
            "lat": 35.607947,
            "lng": 104.592342
        },
        "cidx": [
            2539,
            2545
        ]
    },
    {
        "id": "621200",
        "name": "陇南",
        "fullname": "陇南市",
        "location": {
            "lat": 33.370174,
            "lng": 104.960296
        },
        "cidx": [
            2546,
            2554
        ]
    },
    {
        "id": "622900",
        "name": "临夏",
        "fullname": "临夏回族自治州",
        "location": {
            "lat": 35.601792,
            "lng": 103.210386
        },
        "cidx": [
            2555,
            2562
        ]
    },
    {
        "id": "623000",
        "name": "甘南",
        "fullname": "甘南藏族自治州",
        "location": {
            "lat": 34.983266,
            "lng": 102.911736
        },
        "cidx": [
            2563,
            2570
        ]
    },
    {
        "id": "630100",
        "name": "西宁",
        "fullname": "西宁市",
        "location": {
            "lat": 36.616621,
            "lng": 101.777795
        },
        "cidx": [
            2571,
            2577
        ]
    },
    {
        "id": "630200",
        "name": "海东",
        "fullname": "海东市",
        "location": {
            "lat": 36.473864,
            "lng": 102.41029
        },
        "cidx": [
            2578,
            2583
        ]
    },
    {
        "id": "632200",
        "name": "海北",
        "fullname": "海北藏族自治州",
        "location": {
            "lat": 36.954612,
            "lng": 100.900944
        },
        "cidx": [
            2584,
            2587
        ]
    },
    {
        "id": "632300",
        "name": "黄南",
        "fullname": "黄南藏族自治州",
        "location": {
            "lat": 35.519317,
            "lng": 102.015397
        },
        "cidx": [
            2588,
            2591
        ]
    },
    {
        "id": "632500",
        "name": "海南",
        "fullname": "海南藏族自治州",
        "location": {
            "lat": 36.296399,
            "lng": 100.622647
        },
        "cidx": [
            2592,
            2596
        ]
    },
    {
        "id": "632600",
        "name": "果洛",
        "fullname": "果洛藏族自治州",
        "location": {
            "lat": 34.472179,
            "lng": 100.245161
        },
        "cidx": [
            2597,
            2602
        ]
    },
    {
        "id": "632700",
        "name": "玉树",
        "fullname": "玉树藏族自治州",
        "location": {
            "lat": 32.992934,
            "lng": 97.009184
        },
        "cidx": [
            2603,
            2608
        ]
    },
    {
        "id": "632800",
        "name": "海西",
        "fullname": "海西蒙古族藏族自治州",
        "location": {
            "lat": 37.34811,
            "lng": 97.33192
        },
        "cidx": [
            2609,
            2615
        ]
    },
    {
        "id": "640100",
        "name": "银川",
        "fullname": "银川市",
        "location": {
            "lat": 38.487783,
            "lng": 106.230977
        },
        "cidx": [
            2616,
            2621
        ]
    },
    {
        "id": "640200",
        "name": "石嘴山",
        "fullname": "石嘴山市",
        "location": {
            "lat": 38.984632,
            "lng": 106.382792
        },
        "cidx": [
            2622,
            2624
        ]
    },
    {
        "id": "640300",
        "name": "吴忠",
        "fullname": "吴忠市",
        "location": {
            "lat": 37.997755,
            "lng": 106.198613
        },
        "cidx": [
            2625,
            2629
        ]
    },
    {
        "id": "640400",
        "name": "固原",
        "fullname": "固原市",
        "location": {
            "lat": 36.01628,
            "lng": 106.24267
        },
        "cidx": [
            2630,
            2634
        ]
    },
    {
        "id": "640500",
        "name": "中卫",
        "fullname": "中卫市",
        "location": {
            "lat": 37.500185,
            "lng": 105.19677
        },
        "cidx": [
            2635,
            2637
        ]
    },
    {
        "id": "650100",
        "name": "乌鲁木齐",
        "fullname": "乌鲁木齐市",
        "location": {
            "lat": 43.825377,
            "lng": 87.616824
        },
        "cidx": [
            2638,
            2645
        ]
    },
    {
        "id": "650200",
        "name": "克拉玛依",
        "fullname": "克拉玛依市",
        "location": {
            "lat": 45.577712,
            "lng": 84.889239
        },
        "cidx": [
            2646,
            2649
        ]
    },
    {
        "id": "650400",
        "name": "吐鲁番",
        "fullname": "吐鲁番市",
        "location": {
            "lat": 42.950736,
            "lng": 89.190374
        },
        "cidx": [
            2650,
            2652
        ]
    },
    {
        "id": "650500",
        "name": "哈密",
        "fullname": "哈密市",
        "location": {
            "lat": 42.819346,
            "lng": 93.515053
        },
        "cidx": [
            2653,
            2655
        ]
    },
    {
        "id": "652300",
        "name": "昌吉",
        "fullname": "昌吉回族自治州",
        "location": {
            "lat": 44.011044,
            "lng": 87.308995
        },
        "cidx": [
            2656,
            2662
        ]
    },
    {
        "id": "652700",
        "name": "博州",
        "fullname": "博尔塔拉蒙古自治州",
        "location": {
            "lat": 44.906039,
            "lng": 82.066363
        },
        "cidx": [
            2663,
            2666
        ]
    },
    {
        "id": "652800",
        "name": "巴州",
        "fullname": "巴音郭楞蒙古自治州",
        "location": {
            "lat": 41.764115,
            "lng": 86.145298
        },
        "cidx": [
            2667,
            2675
        ]
    },
    {
        "id": "652900",
        "name": "阿克苏",
        "fullname": "阿克苏地区",
        "location": {
            "lat": 41.174401,
            "lng": 80.256667
        },
        "cidx": [
            2676,
            2684
        ]
    },
    {
        "id": "653000",
        "name": "克州",
        "fullname": "克孜勒苏柯尔克孜自治州",
        "location": {
            "lat": 39.714734,
            "lng": 76.167327
        },
        "cidx": [
            2685,
            2688
        ]
    },
    {
        "id": "653100",
        "name": "喀什",
        "fullname": "喀什地区",
        "location": {
            "lat": 39.46823,
            "lng": 75.993936
        },
        "cidx": [
            2689,
            2700
        ]
    },
    {
        "id": "653200",
        "name": "和田",
        "fullname": "和田地区",
        "location": {
            "lat": 37.112246,
            "lng": 79.912881
        },
        "cidx": [
            2701,
            2708
        ]
    },
    {
        "id": "654000",
        "name": "伊犁",
        "fullname": "伊犁哈萨克自治州",
        "location": {
            "lat": 43.917106,
            "lng": 81.323691
        },
        "cidx": [
            2709,
            2719
        ]
    },
    {
        "id": "654200",
        "name": "塔城",
        "fullname": "塔城地区",
        "location": {
            "lat": 46.751619,
            "lng": 82.986943
        },
        "cidx": [
            2720,
            2726
        ]
    },
    {
        "id": "654300",
        "name": "阿勒泰",
        "fullname": "阿勒泰地区",
        "location": {
            "lat": 47.845237,
            "lng": 88.140919
        },
        "cidx": [
            2727,
            2733
        ]
    },
    {
        "id": "659001",
        "name": "石河子",
        "fullname": "石河子市",
        "location": {
            "lat": 44.305368,
            "lng": 86.080397
        },
        "cidx": null
    },
    {
        "id": "659002",
        "name": "阿拉尔",
        "fullname": "阿拉尔市",
        "location": {
            "lat": 40.547205,
            "lng": 81.280532
        },
        "cidx": null
    },
    {
        "id": "659003",
        "name": "图木舒克",
        "fullname": "图木舒克市",
        "location": {
            "lat": 39.867776,
            "lng": 79.074965
        },
        "cidx": null
    },
    {
        "id": "659004",
        "name": "五家渠",
        "fullname": "五家渠市",
        "location": {
            "lat": 44.166489,
            "lng": 87.542852
        },
        "cidx": null
    },
    {
        "id": "659005",
        "name": "北屯",
        "fullname": "北屯市",
        "location": {
            "lat": 47.326733,
            "lng": 87.834419
        },
        "cidx": null
    },
    {
        "id": "659006",
        "name": "铁门关",
        "fullname": "铁门关市",
        "location": {
            "lat": 41.862997,
            "lng": 85.670291
        },
        "cidx": null
    },
    {
        "id": "659007",
        "name": "双河",
        "fullname": "双河市",
        "location": {
            "lat": 44.845906,
            "lng": 82.367907
        },
        "cidx": null
    },
    {
        "id": "659008",
        "name": "可克达拉",
        "fullname": "可克达拉市",
        "location": {
            "lat": 43.940381,
            "lng": 80.994153
        },
        "cidx": null
    },
    {
        "id": "659009",
        "name": "昆玉",
        "fullname": "昆玉市",
        "location": {
            "lat": 37.215372,
            "lng": 79.270193
        },
        "cidx": null
    },
    {
        "id": "659010",
        "name": "胡杨河",
        "fullname": "胡杨河市",
        "location": {
            "lat": 44.692894,
            "lng": 84.827592
        },
        "cidx": null
    },
    {
        "id": "659011",
        "name": "新星",
        "fullname": "新星市",
        "location": {
            "lat": 42.797043,
            "lng": 93.74831
        },
        "cidx": null
    }
]